{"wfo": "AFC",
  "MAPPING":{
    "centerLat":61.086,
    "centerLon":-147.380,
    "mapZoom":7
  },
  "AVG_Sites": [
    {
    "location":"CORDOVA LOW ELEVATIONS",
      "geometry": {
        "type": "GridPoint",
        "coordinates": [ -145.738,60.536 ]
      }
    },
    {
    "location":"CORDOVA MID ELEVATIONS",
      "geometry": {
        "type": "GridPoint",
        "coordinates": [ -145.738,60.556 ]
      }
    },
    {
    "location":"CORDOVA UPPER ELEVATIONS",
      "geometry": {
        "type": "GridPoint",
        "coordinates": [ -145.720,60.560 ]
      }
    },
    {
    "location":"EASTERN KENAI LAKE LOW ELEVATIONS",
      "geometry": {
        "type": "GridPoint",
        "coordinates": [ -149.348,60.377 ]
      }
    },
    {
    "location":"EASTERN KENAI LAKE UPPER ELEVATIONS",
      "geometry": {
        "type": "GridPoint",
        "coordinates": [ -149.308,60.378 ]
      }
    },
    {
    "location":"GIRDWOOD AREA LOW ELEVATIONS",
      "geometry": {
        "type": "GridPoint",
        "coordinates": [ -149.111,60.959 ]
      }
    },
    {
    "location":"GIRDWOOD AREA MID ELEVATIONS",
      "geometry": {
        "type": "GridPoint",
        "coordinates": [ -149.091,60.960 ]
      }
    },
    {
    "location":"GIRDWOOD AREA UPPER ELEVATIONS",
      "geometry": {
        "type": "GridPoint",
        "coordinates": [ -149.059,60.959 ]
      }
    },
    {
    "location":"GIRDWOOD AREA HIGH ALPINE",
      "geometry": {
        "type": "GridPoint",
        "coordinates": [ -148.992,61.039 ]
      }
    },
    {
    "location":"GRANDVIEW LOW ELEVATIONS",
      "geometry": {
        "type": "GridPoint",
        "coordinates": [ -149.065,60.609 ]
      }
    },
    {
    "location":"GRANDVIEW UPPER ELEVATIONS",
      "geometry": {
        "type": "GridPoint",
        "coordinates": [ -149.024,60.617 ]
      }
    },
    {
    "location":"HATCHER PASS LOW ELEVATIONS",
      "geometry": {
        "type": "GridPoint",
        "coordinates": [ -149.236,61.744 ]
      }
    },
    {
    "location":"HATCHER PASS MID ELEVATIONS",
      "geometry": {
        "type": "GridPoint",
        "coordinates": [ -149.276,61.777 ]
      }
    },
    {
    "location":"HATCHER PASS UPPER ELEVATIONS",
      "geometry": {
        "type": "GridPoint",
        "coordinates": [ -149.244,61.787 ]
      }
    },
    {
    "location":"PORTAGE VALLEY LOW ELEVATIONS",
      "geometry": {
        "type": "GridPoint",
        "coordinates": [ -148.938,60.799 ]
      }
    },
    {
    "location":"PORTAGE VALLEY UPPER ELEVATIONS",
      "geometry": {
        "type": "GridPoint",
        "coordinates": [ -148.846,60.801 ]
      }
    },
    {
    "location":"SUMMIT LAKE LOW ELEVATIONS",
      "geometry": {
        "type": "GridPoint",
        "coordinates": [ -149.494,60.645 ]
      }
    },
    {
    "location":"SUMMIT LAKE MID ELEVATIONS",
      "geometry": {
        "type": "GridPoint",
        "coordinates": [ -149.469,60.630 ]
      }
    },
    {
    "location":"SUMMIT LAKE UPPER ELEVATIONS",
      "geometry": {
        "type": "GridPoint",
        "coordinates": [ -149.437,60.619 ]
      }
    },
    {
    "location":"THOMPSON PASS LOW ELEVATIONS",
      "geometry": {
        "type": "GridPoint",
        "coordinates": [ -145.766,61.122 ]
      }
    },
    {
    "location":"THOMPSON PASS MID ELEVATIONS",
      "geometry": {
        "type": "GridPoint",
        "coordinates": [ -145.728,61.150 ]
      }
    },
    {
    "location":"THOMPSON PASS UPPER ELEVATIONS",
      "geometry": {
        "type": "GridPoint",
        "coordinates": [ -145.802,61.140 ]
      }
    },
    {
    "location":"THOMPSON PASS LOW ELEVATIONS CONTINENTAL",
      "geometry": {
        "type": "GridPoint",
        "coordinates": [ -145.360,61.236 ]
      }
    },
    {
    "location":"THOMPSON PASS MID ELEVATIONS CONTINENTAL",
      "geometry": {
        "type": "GridPoint",
        "coordinates": [ -145.361,61.252 ]
      }
    },
    {
    "location":"THOMPSON PASS UPPER ELEVATIONS CONTINENTAL",
      "geometry": {
        "type": "GridPoint",
        "coordinates": [ -145.280,61.224 ]
      }
    },
    {
    "location":"VALDEZ COASTAL LOW ELEVATIONS",
      "geometry": {
        "type": "GridPoint",
        "coordinates": [ -146.156,61.114 ]
      }
    },
    {
    "location":"VALDEZ COASTAL MID ELEVATIONS",
      "geometry": {
        "type": "GridPoint",
        "coordinates": [ -146.100,61.102 ]
      }
    },
    {
    "location":"VALDEZ COASTAL UPPER ELEVATIONS",
      "geometry": {
        "type": "GridPoint",
        "coordinates": [ -146.306,61.165 ]
      }  
    },
    {
    "location":"TURNAGAIN PASS LOW ELEVATIONS",
      "geometry": {
        "type": "GridPoint",
        "coordinates": [ -149.194,60.800 ]
      }
    },
    {
    "location":"TURNAGAIN PASS MID ELEVATIONS",
      "geometry": {
        "type": "GridPoint",
        "coordinates": [ -149.158,60.782 ]
      }
    },
    {
    "location":"TURNAGAIN PASS UPPER ELEVATIONS",
      "geometry": {
        "type": "GridPoint",
        "coordinates": [ -149.095,60.755 ]
      }
    },
    {
    "location":"CHUGACH FRONT RANGE SOUTH LOWER ELEVATIONS",
      "geometry": {
        "type": "GridPoint",
        "coordinates": [ -149.710,61.107 ]
      }
    },
    {
    "location":"CHUGACH FRONT RANGE SOUTH UPPER ELEVATIONS",
      "geometry": {
        "type": "GridPoint",
        "coordinates": [ -149.667,61.090 ]
      }
    },
    {
    "location":"CHUGACH FRONT RANGE SOUTH UPPER ELEVATIONS",
      "geometry": {
        "type": "GridPoint",
        "coordinates": [ -149.667,61.090 ]
      } 
    },
    {
    "location":"CHUGACH FRONT RANGE NORTH LOWER ELEVATIONS",
      "geometry": {
        "type": "GridPoint",
        "coordinates": [ -149.601,61.235 ]
      }  
    },
    {
    "location":"CHUGACH FRONT RANGE NORTH UPPER ELEVATIONS",
      "geometry": {
        "type": "GridPoint",
        "coordinates": [ -149.504,61.262 ]
      }    
    },
    {
    "location":"INDIAN LOWER ELEVATIONS",
      "geometry": {
        "type": "GridPoint",
        "coordinates": [ -149.517,61.007 ]
      }
    },
    {
    "location":"INDIAN UPPER ELEVATIONS",
      "geometry": {
        "type": "GridPoint",
        "coordinates": [ -149.567,61.036 ]
      } 
    },
    {
    "location":"PLACER VALLEY LOWER ELEVATIONS",
      "geometry": {
        "type": "GridPoint",
        "coordinates": [ -148.970,60.759 ]
      }  
    },
    {
    "location":"PLACER VALLEY UPPER ELEVATIONS",
      "geometry": {
        "type": "GridPoint",
        "coordinates": [ -148.957,60.735 ]
      }  
    }
  ]
}

