{
 "fill":[
  {"product":"Avalanche Warning","hex":"#1E90FF"},
  {"product":"Avalanche Watch","hex":"#F4A460"},
  {"product":"Air Quality Alert","hex":"#808080"},
  {"product":"Air Stagnation Advisory","hex":"#808080"},
  {"product":"Beach Hazards Statement","hex":"#40E0D0"},
  {"product":"Blowing Dust Advisory","hex":"#BDB76B"},
  {"product":"Blizzard Warning","hex":"#FF4500"},
  {"product":"Brisk Wind Advisory","hex":"#D8BFD8"},
  {"product":"Coastal Flood Statement","hex":"#6B8E23"},
  {"product":"Coastal Flood Advisory","hex":"#7CFC00"},
  {"product":"Coastal Flood Watch","hex":"#66CDAA"},
  {"product":"Coastal Flood Warning","hex":"#228B22"},
  {"product":"Dense Fog Advisory","hex":"#708090"},
  {"product":"Excessive Heat Warning","hex":"#C71585"},
  {"product":"Freezing Fog Advisory","hex":"#008080"},
  {"product":"Fire Weather Watch","hex":"#FFDEAD"},
  {"product":"Flash Flood Statement","hex":"#8B0000"},
  {"product":"Flash Flood Watch","hex":"#2E8B57"},
  {"product":"Flash Flood Warning","hex":"#8B0000"},
  {"product":"Flood Advisory","hex":"#00FF7F"},
  {"product":"Flood Watch","hex":"#2E8B57"},
  {"product":"Flood Warning","hex":"#00FF00"},
  {"product":"Frost Advisory","hex":"#6495ED"},
  {"product":"Freeze Watch","hex":"#00FFFF"},
  {"product":"Freeze Warning","hex":"#483D8B"},
  {"product":"Hard Freeze Warning","hex":"#9400D3"},
  {"product":"Hazardous Weather Outlook","hex":"#EEE8AA"},
  {"product":"Heat Advisory","hex":"#FF7F50"},
  {"product":"Freezing Spray Advisory","hex":"#00BFFF"},
  {"product":"Heavy Freezing Spray Warning","hex":"#00BFFF"},
  {"product":"Gale Watch","hex":"#FFC0CB"},
  {"product":"Gale Warning","hex":"#DDA0DD"},
  {"product":"High Wind Watch","hex":"#B8860B"},
  {"product":"High Wind Warning","hex":"#DAA520"},
  {"product":"High Surf Warning","hex":"#228B22"},
  {"product":"High Surf Advisory","hex":"#BA55D3"},
  {"product":"Hurricane Local Statement","hex":"#FFE4B5"},
  {"product":"Hurricane Watch","hex":"#FF00FF"},
  {"product":"Hurricane Warning","hex":"#DC143C"},
  {"product":"Hydrologic Outlook","hex":"#90EE90"},
  {"product":"Lake Wind Advisory","hex":"#D2B48C"},
  {"product":"Lakeshore Flood Advisory","hex":"#7CFC00"},
  {"product":"Low Water Advisory","hex":"#A52A2A"},
  {"product":"Marine Weather Statement","hex":"#FFDAB9"},
  {"product":"Red Flag Warning","hex":"#FF1493"},
  {"product":"Rip Current Statement","hex":"#40E0D0"},
  {"product":"Severe Weather Statement","hex":"#00FFFF"},
  {"product":"Severe Thunderstorm Watch","hex":"#DB7093"},
  {"product":"Severe Thunderstorm Warning","hex":"#FFA500"},
  {"product":"Small Craft Advisory","hex":"#D8BFD8"},
  {"product":"Small Craft Advisory for Hazardous Seas","hex":"#D8BFD8"},
  {"product":"Small Craft Advisory for Rough Bar","hex":"#D8BFD8"},
  {"product":"Small Craft Advisory for Winds","hex":"#D8BFD8"},
  {"product":"Hazardous Seas Advisory","hex":"#D8BFD8"},
  {"product":"Hazardous Seas Warning","hex":"#D8BFD8"},
  {"product":"Special Marine Warning","hex":"#FFA500"},
  {"product":"Special Weather Statement","hex":"#FFE4B5"},
  {"product":"Storm Surge Watch","hex":"#DB7FF7"},
  {"product":"Storm Surge Warning","hex":"#B524F7"},
  {"product":"Storm Watch","hex":"#FFE4B5"},
  {"product":"Storm Warning","hex":"#9400D3"},
  {"product":"Tornado Watch","hex":"#FFFF00"},
  {"product":"Tornado Warning","hex":"#FF0000"},
  {"product":"Tropical Storm Watch","hex":"#F08080"},
  {"product":"Tropical Storm Warning","hex":"#B22222"},
  {"product":"Wind Advisory","hex":"#D2B48C"},
  {"product":"Wind Chill Advisory","hex":"#AFEEEE"},
  {"product":"Wind Chill Watch","hex":"#5F9EA0"},
  {"product":"Winter Weather Advisory","hex":"#7B68EE"},
  {"product":"Winter Storm Watch","hex":"#4682B4"},
  {"product":"Winter Storm Warning","hex":"#FF69B4"},
  {"product":"TEST","hex":"#FFFFFF"}
 ],
 "centers":[
  {"name":"Alabama","state":"AL","lat":"32.806671","lon":"-86.791130","zoom":"7"},
  {"name":"Alaska","state":"AK","lat":"61.370716","lon":"-152.404419","zoom":"4"},
  {"name":"Arizona","state":"AZ","lat":"33.929759","lon":"-111.731221","zoom":"7"},
  {"name":"Arkansas","state":"AR","lat":"34.969704","lon":"-92.373123","zoom":"7"},
  {"name":"California","state":"CA","lat":"36.516203","lon":"-119.681564","zoom":"6"},
  {"name":"Colorado","state":"CO","lat":"39.059811","lon":"-105.311104","zoom":"6"},
  {"name":"Connecticut","state":"CT","lat":"41.597782","lon":"-72.755371","zoom":"8"},
  {"name":"Delaware","state":"DE","lat":"39.318523","lon":"-75.507141","zoom":"8"},
  {"name":"District of Columbia","state":"DC","lat":"38.897438","lon":"-77.026817","zoom":"9"},
  {"name":"Florida","state":"FL","lat":"27.766279","lon":"-81.686783","zoom":"6"},
  {"name":"Georgia","state":"GA","lat":"33.040619","lon":"-83.643074","zoom":"7"},
  {"name":"Hawaii","state":"HI","lat":"21.094318","lon":"-157.498337","zoom":"7"},
  {"name":"Idaho","state":"ID","lat":"44.240459","lon":"-114.478828","zoom":"6"},
  {"name":"Illinois","state":"IL","lat":"39.849457","lon":"-88.986137","zoom":"7"},
  {"name":"Indiana","state":"IN","lat":"39.849426","lon":"-86.258278","zoom":"7"},
  {"name":"Iowa","state":"IA","lat":"42.011539","lon":"-93.310526","zoom":"7"},
  {"name":"Kansas","state":"KS","lat":"38.526600","lon":"-97.526486","zoom":"6"},
  {"name":"Kentucky","state":"KY","lat":"37.668140","lon":"-84.670067","zoom":"6"},
  {"name":"Louisiana","state":"LA","lat":"31.169546","lon":"-91.867805","zoom":"7"},
  {"name":"Maine","state":"ME","lat":"45.193947","lon":"-69.381927","zoom":"7"},
  {"name":"Maryland","state":"MD","lat":"39.063946","lon":"-76.802101","zoom":"7"},
  {"name":"Massachusetts","state":"MA","lat":"42.230171","lon":"-71.530106","zoom":"7"},
  {"name":"Michigan","state":"MI","lat":"43.326618","lon":"-84.536095","zoom":"6"},
  {"name":"Minnesota","state":"MN","lat":"45.694454","lon":"-93.900192","zoom":"7"},
  {"name":"Mississippi","state":"MS","lat":"32.741646","lon":"-89.678696","zoom":"7"},
  {"name":"Missouri","state":"MO","lat":"38.456085","lon":"-92.288368","zoom":"6"},
  {"name":"Montana","state":"MT","lat":"46.921925","lon":"-110.454353","zoom":"5"},
  {"name":"Nebraska","state":"NE","lat":"41.125370","lon":"-99.268082","zoom":"6"},
  {"name":"Nevada","state":"NV","lat":"38.313515","lon":"-117.055374","zoom":"6"},
  {"name":"New Hampshire","state":"NH","lat":"44.002492","lon":"-71.563896","zoom":"8"},
  {"name":"New Jersey","state":"NJ","lat":"40.298904","lon":"-74.521011","zoom":"8"},
  {"name":"New Mexico","state":"NM","lat":"34.440515","lon":"-106.248482","zoom":"7"},
  {"name":"New York","state":"NY","lat":"42.165726","lon":"-74.948051","zoom":"6"},
  {"name":"North Carolina","state":"NC","lat":"35.630066","lon":"-79.806419","zoom":"7"},
  {"name":"North Dakota","state":"ND","lat":"47.528912","lon":"-99.784012","zoom":"6"},
  {"name":"Ohio","state":"OH","lat":"40.388783","lon":"-82.764915","zoom":"7"},
  {"name":"Oklahoma","state":"OK","lat":"35.565342","lon":"-96.928917","zoom":"6"},
  {"name":"Oragon","state":"OR","lat":"44.572021","lon":"-122.070938","zoom":"6"},
  {"name":"Pennsylvania","state":"PA","lat":"40.590752","lon":"-77.609755","zoom":"7"},
  {"name":"Rhode Island","state":"RI","lat":"41.680893","lon":"-71.511780","zoom":"9"},
  {"name":"South Carolina","state":"SC","lat":"33.856892","lon":"-80.945007","zoom":"7"},
  {"name":"South Dakota","state":"SD","lat":"44.299782","lon":"-99.438828","zoom":"6"},
  {"name":"Tennessee","state":"TN","lat":"35.747845","lon":"-86.692345","zoom":"6"},
  {"name":"Texas","state":"TX","lat":"31.054487","lon":"-97.563461","zoom":"7"},
  {"name":"Utah","state":"UT","lat":"39.750032","lon":"-111.862434","zoom":"7"},
  {"name":"Vermont","state":"VT","lat":"44.045876","lon":"-72.710686","zoom":"8"},
  {"name":"Virginia","state":"VA","lat":"37.769337","lon":"-78.169968","zoom":"6"},
  {"name":"Washington","state":"WA","lat":"47.400902","lon":"-121.490494","zoom":"6"},
  {"name":"West Virginia","state":"WV","lat":"38.491226","lon":"-80.954453","zoom":"7"},
  {"name":"Wisconson","state":"WI","lat":"44.268543","lon":"-89.616508","zoom":"7"},
  {"name":"Wyoming","state":"WY","lat":"42.755966","lon":"-107.302490","zoom":"6"}
 ]
}
