{"wfo": "SLC",
  "MAPPING":{
    "centerLat":39.41,
    "centerLon":-111.95,
    "mapZoom":6
  },
  "AVG_Sites": [
    {
      "location":"Nordic Valley",
      "geometry": {
        "type": "GridPoint",
        "coordinates": [ -111.88,41.31 ]
      }
    },
    {
      "location":"Powder Mountain",
      "geometry": {
        "type": "GridPoint",
        "coordinates": [ -111.77,41.38  ]
      }
    },
    {
      "location":"Snowbasin",
      "geometry": {
        "type": "GridPoint",
        "coordinates": [ -111.89,41.19  ]
      }
    },
    {
      "location":"Farmington Flats",
      "geometry": {
        "type": "GridPoint",
        "coordinates": [ -111.79,40.98  ]
      }
    },
    {
      "location":"Monte Cristo",
      "geometry": {
        "type": "GridPoint",
        "coordinates": [ -111.58,41.41  ]
      }
    },
    {
      "location":"Sessions Mountains",
      "geometry": {
        "type": "GridPoint",
        "coordinates": [ -111.74,40.85  ]
      }
    },
    {
      "location":"Alta",
      "geometry": {
        "type": "GridPoint",
        "coordinates": [ -111.6369,40.5905  ]
      }
    },
    {
      "location":"LCC - Alta/Snowbird",
      "geometry": {
        "type": "GridPoint",
        "coordinates": [ -111.63,40.57  ]
      }
    },
    {
      "location":"LCC - Mid Canyon/Elberts",
      "geometry": {
        "type": "GridPoint",
        "coordinates": [ -111.68,40.58  ]
      }
    },
    {
      "location":"BCC - Brigton/Solitude",
      "geometry": {
        "type": "GridPoint",
        "coordinates": [ -111.57,40.60  ]
      }
    },
    {
      "location":"BCC - Mid Canyon/Spruces",
      "geometry": {
        "type": "GridPoint",
        "coordinates": [ -111.64,40.64  ]
      }
    },
    {
      "location":"Park City",
      "geometry": {
        "type": "GridPoint",
        "coordinates": [ -111.51,40.69  ]
      }
    },
    {
      "location":"Park City Ridgeline",
      "geometry": {
        "type": "GridPoint",
        "coordinates": [ -111.56,40.63  ]
      }
    },
    {
      "location":"Aspen Grove",
      "geometry": {
        "type": "GridPoint",
        "coordinates": [ -111.61,40.41  ]
      }
    },
    {
      "location":"Soldier Hollow",
      "geometry": {
        "type": "GridPoint",
        "coordinates": [ -111.52,40.48  ]
      }
    },
    {
      "location":"Sundance",
      "geometry": {
        "type": "GridPoint",
        "coordinates": [ -111.58,40.38  ]
      }
    },
    {
      "location":"Bunnels Fork",
      "geometry": {
        "type": "GridPoint",
        "coordinates": [ -111.57,40.32  ]
      }
    },
    {
      "location":"Provo Peak Area",
      "geometry": {
        "type": "GridPoint",
        "coordinates": [ -111.55,40.23  ]
      }
    },
    {
      "location":"Cherry Peak",
      "geometry": {
        "type": "GridPoint",
        "coordinates": [ -111.75,41.92  ]
      }
    },
    {
      "location":"Beaver Mountain",
      "geometry": {
        "type": "GridPoint",
        "coordinates": [ -111.56,41.96  ]
      }
    },
    {
      "location":"Tony Grove",
      "geometry": {
        "type": "GridPoint",
        "coordinates": [ -111.65,41.90  ]
      }
    },
    {
      "location":"Wellsville Mountains",
      "geometry": {
        "type": "GridPoint",
        "coordinates": [ -112.02,41.64  ]
      }
    },
    {
      "location":"Christmas Meadows",
      "geometry": {
        "type": "GridPoint",
        "coordinates": [ -110.83,40.87  ]
      }
    },
    {
      "location":"Mirror Lake",
      "geometry": {
        "type": "GridPoint",
        "coordinates": [ -110.90,40.69  ]
      }
    },
    {
      "location":"Samak",
      "geometry": {
        "type": "GridPoint",
        "coordinates": [ -111.10,40.60  ]
      }
    },
    {
      "location":"Wolf Creek Pass",
      "geometry": {
        "type": "GridPoint",
        "coordinates": [ -111.04,40.48  ]
      }
    },
    {
      "location":"Thousand Peaks Ranch",
      "geometry": {
        "type": "GridPoint",
        "coordinates": [ -111.04,40.83  ]
      }
    }
  ]
}
